     2.11           OBSERVATION DATA    M (MIXED)           RINEX VERSION / TYPE
teqc  2015Jun23                         20160105 07:42:16UTCPGM / RUN BY / DATE
Linux 2.4.21-27.ELsmp|Opteron|gcc -static|Linux x86_64|=+   COMMENT
teqc  2015Jun23                         20160101 22:02:18UTCCOMMENT
teqc  2015Jun23                         20160101 22:02:04UTCCOMMENT
teqc  2015Jun23     CNES                20160101 21:15:03UTCCOMMENT
teqc  2015Jun23                         20160101 21:15:02UTCCOMMENT
   2.035      (antenna height)                              COMMENT
 +60.24196666 (latitude)                                    COMMENT
 +24.38417464 (longitude)                                   COMMENT
0059.672      (elevation)                                   COMMENT
BIT 2 OF LLI FLAGS DATA COLLECTED UNDER A/S CONDITION       COMMENT
10503M002 (COGO code)                                       COMMENT
METG                                                        MARKER NAME
10503M002                                                   MARKER NUMBER
Automatic           CNES                                    OBSERVER / AGENCY
5134K77913          TRIMBLE NETR9       5.01                REC # / TYPE / VERS
5116354159          TRM59800.00     SCIS                    ANT # / TYPE
  2890652.4997  1310295.5475  5513958.8762                  APPROX POSITION XYZ
        2.0352        0.0020        0.0046                  ANTENNA: DELTA H/E/N
     1     1                                                WAVELENGTH FACT L1/2
    21    L1    P1    C1    L2    P2    D1    D2    S1    S2# / TYPES OF OBSERV
          L5    C5    D5    S5    L7    C7    D7    S7    L8# / TYPES OF OBSERV
          C8    D8    S8                                    # / TYPES OF OBSERV
    30.0000                                                 INTERVAL
    17                                                      LEAP SECONDS
 SNR is mapped to RINEX snr flag value [0-9]                COMMENT
  L1 & L2: min(max(int(snr_dBHz/6), 0), 9)                  COMMENT
Forced Modulo Decimation to 30 seconds                      COMMENT
  2016     1     1    21     0    0.0000000     GPS         TIME OF FIRST OBS
                                                            END OF HEADER
 16  1  1 21  0  0.0000000  0 22G25G32G24G17G02G15G28G12G06G22G14E14
                                E22E30E19S28S36G19G03S27S25S20
 124819213.453 7                  23752282.125    97261661.60944  23752289.547
      3547.367                          42.700          27.700    93209093.137 8
  23752291.313                          48.000


 129429387.294 5                  24629605.820
       893.570                          32.300



 107771002.426 8                  20508142.508    83977464.72447  20508148.977
      -833.043                          52.900          47.000    80478407.724 9
  20508150.480                          57.500


 117786863.448 8                  22414116.219    91782089.15046  22414120.184
     -2132.891                          48.100          39.200



 133778099.828 5                  25457135.984
      3308.359                          33.300



 131403532.901 6                  25005264.188   102392391.80143  25005267.805
     -3716.059                          40.400          22.900



 133368836.458 5                  25379264.828   103923863.83642  25379269.309
     -3223.687                          30.300          17.400



 108702420.679 8                  20685358.406    84703110.48047  20685362.402
      1909.195                          51.900          44.500



 124581740.472 6                  23707133.625    97076778.74544  23707140.465
      2967.746                          39.700          25.800    93031896.483 7
  23707142.434                          46.700


 131991193.064 6                  25117071.406   102850206.83543  25117073.969
     -2037.391                          39.300          22.800



 121317765.020 7                  23085992.344    94533300.85044  23085995.984
      1862.633                          42.600          29.400



  95410306.595 8                  18155975.328
     -3178.844                          51.500                    71248011.895 8
  18155988.727                          53.700    73106587.952 8  18155986.336
                        53.900    72177258.029 9  18155987.555
        58.100
 131097780.723 8                  24947080.711
      -783.066                          51.000                    97897726.814 8
  24947084.441                          50.200   100451569.923 8  24947082.332
                        50.900    99174651.975 9  24947083.625
        55.500
 138365423.760 7                  26330074.117
     -2803.922                          45.400                   103324931.906 7
  26330079.188                          46.100   106020351.289 7  26330076.609
                        45.100   104672630.205 8  26330077.891
        49.500
 141171543.254 6                  26864050.445
     -2172.078                          40.900                   105420312.498 6
  26864053.523                          40.100   108170400.288 6  26864051.551
                        38.900   106795363.497 7  26864052.262
        43.700
 215364831.964 6                  40982563.000
         3.105                          37.000                   160824337.212 7
  40982546.211                          44.000


 207963018.450 6                  39574052.516
        -3.613                          39.800                   155296934.374 6
  39574044.871                          39.800


 120932676.907 7                  23012680.703    94233104.57845  23012682.965
     -3096.195                          45.000          34.200



 134329563.186 5                  25562088.516
      2402.555                          35.700                   100311159.921 5
  25562096.254                          31.500


 209587990.190 5                  39883269.672
         3.266                          34.900                   156510504.752 6
  39883265.449                          39.900


 212137018.281 5                  40331939.922
         4.504                          35.200



 211632796.215 5                  40272362.922
        35.539                          33.700



 16  1  1 21  0 30.0000000  0 24G25G32G24G17G02G15G28G12G06G22G14E14
                                E22E30E19S28S36G01G19G03R03S27S25S20
 124712872.514 7                  23732047.211    97178798.56644  23732053.516
      3542.246        2760.220          43.600          27.400    93129682.744 7
  23732053.875        2645.218          46.600


 129402853.958 5                  24624555.070
       874.813                          32.500



 107796269.773 9                  20512950.891    83997153.56047  20512957.570
      -851.207        -663.077          54.100          46.900    80497276.196 9
  20512959.137        -635.456          57.400


 117851065.944 8                  22426333.273    91832117.06746  22426337.594
     -2147.102       -1672.894          48.100          39.200



 133678837.972 5                  25438247.141
      3309.141                          33.700



 131515034.600 7                  25026482.313   102479276.21344  25026486.664
     -3717.277       -2896.557          42.600          26.200



 133465563.599 4                  25397674.875   103999235.36742  25397676.113
     -3224.582       -2512.677          26.400          14.800



 108645363.774 8                  20674500.938    84658650.55947  20674504.645
      1894.695        1476.553          52.600          44.900



 124492865.660 6                  23690221.742    97007525.64044  23690228.113
      2957.242        2304.449          40.800          28.000    92965528.922 7
  23690230.023        2208.431          46.300


 132052499.100 6                  25128737.445   102897977.78043  25128740.477
     -2049.625       -1596.915          39.500          21.700



 121262143.124 7                  23075408.227    94489959.10344  23075411.441
      1845.684        1438.434          43.500          29.900



  95506282.188 8                  18174238.891
     -3219.371                          51.300                    71319681.983 8
  18174252.508       -2403.591          53.800    73180127.693 8  18174250.113
     -2466.297          53.900    72249862.945 9  18174251.281       -2434.946
        58.100
 131121494.042 8                  24951593.328
      -797.555                          50.800                    97915434.813 8
  24951596.949        -595.435          50.800   100469739.874 8  24951594.695
      -610.966          50.900    99192590.948 9  24951596.027        -603.197
        55.400
 138449600.592 7                  26346092.453
     -2807.789                          45.700                   103387791.235 7
  26346097.707       -2096.667          45.500   106084850.437 7  26346094.941
     -2151.366          44.700   104736309.444 8  26346096.398       -2124.015
        49.500
 141236863.811 6                  26876480.594
     -2182.465                          40.700                   105469090.843 6
  26876483.641       -1629.639          40.300   108220451.124 6  26876481.809
     -1672.149          38.600   106844778.087 7  26876482.625       -1650.895
        43.700
 215364743.528 6                  40982546.234
         2.848                          36.500                   160824270.736 7
  40982528.836           2.254          43.700


 207963122.959 6                  39574071.891
        -3.305                          40.000                   155296956.83016
  39574064.434          -2.020          37.500


 131555006.643 5                  25034069.031
     -2685.020                          33.900                    98239080.019 6
  25034073.973       -2004.727          38.000


 121025757.020 7                  23030393.539    94305634.53545  23030395.301
     -3109.125       -2422.442          44.700          34.000



 134257672.768 5                  25548407.430
      2390.195                          35.200                   100257475.740 5
  25548418.188        1784.986          35.000


 124797978.023 6  23313312.801    23313313.219    97065101.711 5  23313315.113
     -3897.869       -3031.680          39.400          34.700



 209587891.042 5                  39883250.234
         3.465                          35.400                   156510430.628 6
  39883246.152           2.534          40.500


 212136893.106 5                  40331544.219
         4.414                          34.700



 211631731.549 5                  40272180.266
        35.922                          34.300



 16  1  1 21  1  0.0000000  0 23G25G32G24G17G02G15G28G12G06G22G14E14
                                E22E30E19S28S36G01G19G03S27S25S20
 124606682.605 7                  23711839.992    97096053.19144  23711845.301
      3537.168        2756.281          44.400          27.800    93050385.107 8
  23711847.301        2641.430          48.700


 129376888.220 5                  24619612.586
       856.273                          32.400



 107822078.075 8                  20517861.961    84017263.92447  20517868.137
      -869.293        -677.100          53.900          47.100    80516548.628 9
  20517869.879        -648.893          57.200


 117915689.142 8                  22438630.961    91882472.80046  22438634.930
     -2161.129       -1683.782          48.100          39.200



 133579558.662 6                  25419354.828
      3309.730                          37.200



 131626567.559 7                  25047706.180   102566184.99744  25047710.777
     -3718.234       -2897.314          43.300          27.400



 133562312.977 5                  25416082.859   104074624.51642  25416086.867
     -3225.363       -2513.235          32.600          17.800



 108588739.495 8                  20663725.625    84614527.74547  20663729.516
      1880.234        1465.323          51.900          44.500



 124404309.356 6                  23673369.398    96938520.70544  23673376.566
      2946.492        2296.141          40.000          27.500    92899399.194 7
  23673378.531        2200.467          46.700


 132114167.075 6                  25140472.531   102946030.71443  25140474.813
     -2061.660       -1606.271          37.400          18.600



 121207023.024 7                  23064918.711    94447008.38744  23064922.629
      1829.121        1425.383          43.700          29.600



  95603466.844 8                  18192732.531
     -3259.613                          51.500                    71392254.939 9
  18192746.094       -2433.594          54.000    73254593.856 8  18192743.656
     -2497.079          53.700    72323382.504 9  18192744.773       -2465.334
        58.200
 131145636.686 8                  24956187.531
      -811.895                          51.400                    97933463.412 8
  24956190.906        -606.117          50.600   100488238.783 8  24956188.750
      -621.931          50.900    99210854.702 9  24956190.023        -614.021
        55.400
 138533890.538 7                  26362132.164
     -2811.582                          44.700                   103450735.034 7
  26362137.246       -2099.482          45.100   106149436.254 7  26362134.527
     -2154.254          44.400   104800074.252 8  26362136.059       -2126.872
        49.400
 141302489.756 6                  26888968.617
     -2192.598                          40.600                   105518097.225 6
  26888971.672       -1637.183          40.400   108270735.943 6  26888969.750
     -1679.892          38.900   106894423.692 7  26888970.883       -1658.537
        44.000
 215364655.394 6                  40982528.828
         2.832                          37.900                   160824204.609 7
  40982511.523           2.117          43.500


 207963221.594 6                  39574089.734
        -3.277                          40.500                   155297171.997 6
  39574084.152           -.601          38.000


 131635748.506 5                  25049432.438
     -2697.871                          35.200                    98299374.169 6
  25049442.156       -2014.582          37.600


 121119215.922 7                  23048178.703    94378459.64645  23048180.820
     -3121.574       -2432.228          46.300          33.800



 134186160.748 5                  25534800.305
      2377.398                          33.900                   100204073.923 6
  25534808.910        1775.510          37.400


 209587788.296 5                  39883230.594
         3.852                          35.200                   156510353.850 6
  39883225.691           2.789          40.400


 212136773.705 5                  40331132.938
         4.457                          35.000



 211630663.544 5                  40271979.000
        35.609                          34.000



 16  1  1 21  1 30.0000000  0 22G25G24G17G02G15G28G12G06G22G14E14E22
                                E30E19S28S36G01G19G03S27S25S20
 124500645.344 7                  23691661.461    97013426.75144  23691666.875
      3531.965        2752.287          44.000          26.200    92971201.457 7
  23691668.699        2637.606          47.300


 107848427.131 9                  20522875.984    84037795.65447  20522882.359
      -887.359        -691.171          54.400          47.500    80536224.868 9
  20522884.219        -662.376          57.300


 117980731.287 8                  22451007.969    91933154.99146  22451012.000
     -2175.172       -1694.642          48.100          39.200



 133480264.366 6                  25400459.859
      3310.055                          39.100



 131738129.294 7                  25068935.766   102653116.18444  25068941.023
     -3719.168       -2898.038          43.800          26.700



 133659084.235 5                  25434497.125   104150030.64543  25434501.313
     -3226.039       -2513.802          34.800          19.000



 108532548.911 8                  20653032.789    84570742.86647  20653036.664
      1865.816        1454.053          53.100          44.900



 124316074.744 6                  23656579.078    96869766.42344  23656585.945
      2935.719        2287.740          40.400          28.600    92833509.666 7
  23656587.676        2192.419          46.800


 132176194.849 5                  25152275.500   102994364.06943  25152278.012
     -2073.641       -1615.623          35.700          19.000



 121152407.130 7                  23054525.461    94404450.54444  23054529.020
      1812.094        1412.256          45.700          29.500



  95701853.574 8                  18211454.766
     -3299.566                          51.800                    71465725.556 8
  18211468.395       -2463.427          53.000    73329981.094 8  18211465.863
     -2527.687          53.800    72397811.430 9  18211467.156       -2495.554
        58.100
 131170207.971 8                  24960863.266
      -826.246                          50.900                    97951812.100 8
  24960866.836        -616.774          50.600   100507066.133 8  24960864.680
      -632.867          50.700    99229442.721 9  24960866.031        -624.823
        55.300
 138618293.066 7                  26378193.422
     -2815.398                          45.300                   103513762.916 7
  26378198.559       -2102.288          44.900   106214108.332 7  26378195.934
     -2157.124          44.900   104863924.233 8  26378197.535       -2129.704
        49.500
 141368419.581 6                  26901514.359
     -2202.762                          40.400                   105567330.511 6
  26901518.422       -1644.780          41.300   108321253.598 6  26901515.469
     -1687.686          39.000   106944299.166 7  26901517.152       -1666.233
        44.500
 215364566.673 6                  40982513.422
         2.574                          38.400                   160824138.318 7
  40982494.148           1.932          43.200


 207963322.743 6                  39574111.063
        -3.453                          39.600                   155297192.099 6
  39574103.840          -1.256          38.200


 131716887.820 5                  25064871.320   102636504.68342  25064882.207
     -2710.887       -2112.493          34.300          14.800    98359965.137 3
  25064876.492       -2024.450          22.000


 121213050.787 7                  23066034.547    94451577.72345  23066036.242
     -3134.105       -2441.961          45.600          33.900



 134115029.900 5                  25521264.492
      2364.602                          35.400                   100150956.719 6
  25521273.617        1765.967          38.300


 209587686.654 5                  39883211.781
         3.293                          34.800                   156510278.382 6
  39883207.934           2.548          40.200


 212136650.049 5                  40330733.547
         4.094                          34.800



 211629594.012 5                  40271760.609
        35.949                          34.000



 16  1  1 21  2  0.0000000  0 23G25G32G24G17G02G15G28G12G06G22G14E14
                                E22E30E19S28S36G01G19G03S27S25S20
 124394761.322 7                  23671512.102    96930919.69444  23671518.754
      3526.867        2748.279          44.200          27.200    92892132.204 7
  23671520.402        2633.779          47.600


 129326649.41515                  24610055.281
       817.789                          31.800



 107875315.799 9                  20527992.508    84058747.86947  20527999.520
      -905.254        -705.167          54.600          47.200    80556304.071 9
  20528001.203        -675.785          57.200


 118046189.441 8                  22463464.477    91984161.35146  22463468.328
     -2188.887       -1705.420          48.200          38.100



 133380956.764 6                  25381562.422   103933252.64742  25381562.293
      3310.496        2579.586          41.400          17.800



 131849716.985 7                  25090170.148   102740067.57143  25090175.223
     -3719.953       -2898.692          42.200          22.600



 133755875.768 6                  25452916.914   104225452.62943  25452920.645
     -3226.789       -2514.327          37.600          19.300



 108476792.255 8                  20642422.938    84527296.12947  20642426.051
      1851.238        1442.762          52.400          44.700



 124228163.944 6                  23639850.523    96801264.50144  23639857.402
      2924.961        2279.321          40.800          27.000    92767861.978 7
  23639859.313        2184.348          47.200


 132238579.078 6                  25164146.789   103042975.19343  25164149.047
     -2085.496       -1624.836          37.600          20.400



 121098296.391 7                  23044229.289    94362286.32544  23044231.832
      1795.168        1399.115          43.400          29.800



  95801434.497 8                  18230404.445
     -3339.207                          51.500                    71540087.934 8
  18230418.020       -2493.060          53.700    73406283.364 8  18230415.582
     -2558.099          53.300    72473143.757 9  18230416.887       -2525.579
        58.400
 131195206.285 8                  24965620.070
      -840.340                          51.000                    97970479.671 8
  24965623.887        -627.386          50.500   100526220.682 8  24965621.637
      -643.753          51.000    99248353.783 9  24965622.930        -635.570
        55.400
 138702806.652 7                  26394276.102
     -2818.945                          45.100                   103576873.723 7
  26394280.621       -2105.037          44.900   106278865.514 7  26394278.273
     -2159.949          45.100   104927858.221 8  26394279.762       -2132.484
        49.100
 141434650.573 6                  26914118.117
     -2212.793                          40.400                   105616788.712 6
  26914122.086       -1652.228          41.600   108372002.022 6  26914119.039
     -1695.332          39.300   106994402.473 7  26914120.512       -1673.781
        44.900
 215364478.210 6                  40982495.500
         3.273                          36.900                   160824072.259 7
  40982478.453           2.340          42.600


 207963426.237 6                  39574130.984
        -3.312                          39.500                   155297213.47316
  39574124.324           1.300          38.700


 131798420.872 6                  25080387.781   102700037.05942  25080395.832
     -2724.434       -2122.744          37.100          13.900    98420850.037 5
  25080403.422       -2034.285          35.000


 121307258.213 7                  23083962.000    94524986.09845  23083964.246
     -3146.527       -2451.604          45.100          33.300



 134044281.773 5                  25507801.750
      2351.941                          35.300                   100098125.379 6
  25507810.277        1756.424          39.000


 209587584.360 5                  39883191.516
         3.289                          35.400                   156510201.617 6
  39883187.316           2.637          40.600


 212136522.972 5                  40330315.594
         3.938                          34.600



 211628522.105 5                  40271560.813
        35.891                          34.600



 16  1  1 21  2 30.0000000  0 22G25G24G17G02G15G28G12G06G22G14E14E22
                                E30E19S28S36G01G19G03S27S25S20
 124289032.660 7                  23651392.836    96848533.70844  23651398.625
      3521.594        2744.207          44.000          27.000    92813178.981 7
  23651399.453        2629.863          46.000


 107902744.013 9                  20533211.969    84080120.50147  20533218.891
      -923.289        -719.205          54.200          47.300    80576786.179 9
  20533220.512        -689.237          57.200


 118112062.193 8                  22475999.336    92035490.76546  22476003.305
     -2202.629       -1716.182          48.100          38.600



 133281638.835 6                  25362662.359   103855862.14043  25362663.863
      3310.695        2579.787          40.600          19.000



 131961328.141 6                  25111409.203   102827037.26843  25111413.984
     -3720.898       -2899.303          37.900          19.000



 133852686.763 6                  25471338.984   104300889.73743  25471342.766
     -3227.414       -2514.854          38.700          19.600



 108421471.315 8                  20631895.406    84484188.89747  20631899.926
      1836.730        1431.406          51.000          44.800



 124140580.617 6                  23623184.039    96733017.73544  23623191.109
      2913.996        2270.740          40.500          28.600    92702458.827 8
  23623193.137        2176.123          48.100


 132301318.286 6                  25176085.742   103091862.84843  25176087.113
     -2097.293       -1634.047          36.200          19.900



 121044693.473 7                  23034028.750    94320517.82545  23034032.117
      1778.293        1385.879          43.200          30.200



  95902202.908 8                  18249580.047
     -3378.680                          51.300                    71615337.074 9
  18249593.633       -2522.549          54.000    73483495.526 8  18249591.102
     -2588.357          53.100    72549374.408 9  18249592.465       -2555.453
        58.600
 131220631.448 8                  24970458.367
      -854.687                          50.000                    97989466.001 8
  24970462.156        -638.039          50.500   100545702.300 8  24970459.859
      -654.681          51.300    99267587.757 9  24970461.215        -646.361
        55.400
 138787431.313 7                  26410379.672
     -2822.703                          44.700                   103640067.490 7
  26410383.992       -2107.821          44.100   106343707.808 7  26410381.742
     -2162.811          45.100   104991876.254 8  26410383.254       -2135.314
        49.100
 141501181.632 6                  26926778.711
     -2222.781                          40.800                   105666470.997 6
  26926783.121       -1659.682          41.600   108422980.369 6  26926779.418
     -1702.983          40.000   107044732.789 7  26926781.191       -1681.333
        45.100
 215364388.145 6                  40982478.422
         2.816                          38.200                   160824005.653 7
  40982461.188           1.897          43.100


 207963534.320 6                  39574150.156
        -3.590                          40.900                   155297435.45316
  39574143.402           -.141          37.600


 131880345.958 6                  25095977.641
     -2737.414                          37.700                    98482027.713 5
  25095989.762       -2043.993          33.000


 121401835.655 7                  23101958.922    94598682.81145  23101961.352
     -3158.777       -2461.210          46.300          33.100



 133973919.773 6                  25494411.164
      2338.934                          37.100                   100045582.329 6
  25494420.590        1746.747          40.800


 209587479.653 5                  39883172.344
         3.418                          35.300                   156510123.593 6
  39883168.285           2.499          39.700


 212136406.345 5                  40329915.359
         3.676                          35.500



 211627445.282 5                  40271365.109
        35.496                          33.400



 16  1  1 21  3  0.0000000  0 23G25G32G24G17G02G15G28G12G06G22G14E14
                                E22E30E19S28S36G01G19G03S27S25S20
 124183460.445 7                  23631303.141    96766269.67444  23631308.965
      3516.355        2740.123          44.000          26.000    92734342.607 7
  23631310.848        2625.957          47.000


 129278689.20915                  24600932.367
       779.445                          30.300



 107930710.783 9                  20538533.750    84101912.78747  20538540.645
      -941.223        -733.175          54.200          46.700    80597670.458 9
  20538542.152        -702.629          57.300


 118178347.228 7                  22488613.102    92087141.43946  22488616.859
     -2216.398       -1726.876          47.600          38.400



 133182313.077 6                  25343761.547   103778465.45543  25343762.133
      3310.895        2579.930          39.500          20.900



 132072960.358 6                  25132651.047   102914023.33543  25132656.848
     -3721.273       -2899.745          37.100          18.300



 133949516.137 6                  25489764.930   104376341.21742  25489768.922
     -3227.926       -2515.318          37.900          17.400



 108366586.581 8                  20621451.813    84441421.57447  20621455.523
      1822.156        1420.081          52.400          44.900



 124053327.335 6                  23606580.203    96665028.15944  23606586.855
      2902.824        2262.131          41.000          27.600    92637302.147 8
  23606589.055        2167.880          48.000


 132364409.400 5                  25188091.922   103141024.76743  25188093.051
     -2109.031       -1643.176          35.500          19.000



 120991599.916 7                  23023925.258    94279146.21545  23023928.746
      1761.219        1372.622          45.700          30.900



  96004151.255 8                  18268980.336
     -3418.000                          51.800                    71691467.337 8
  18268993.750       -2551.829          53.800    73561611.795 8  18268991.402
     -2618.397          52.900    72626497.671 9  18268992.535       -2585.113
        58.300
 131246482.271 8                  24975377.664
      -868.883                          50.700                    98008770.183 8
  24975381.449        -648.599          50.800   100565510.072 8  24975379.059
      -665.521          51.000    99287143.735 9  24975380.523        -657.061
        55.300
 138872165.988 7                  26426503.617
     -2826.375                          45.000                   103703343.411 7
  26426508.395       -2110.542          44.000   106408634.400 7  26426506.473
     -2165.600          44.200   105055977.516 8  26426507.828       -2138.074
        48.800
 141568010.720 6                  26939496.086
     -2232.797                          41.500                   105716375.827 6
  26939499.230       -1667.106          41.500   108474187.070 6  26939496.887
     -1710.600          40.800   107095288.558 7  26939498.246       -1688.856
        45.000
 215364298.695 6                  40982461.391
         2.895                          36.700                   160823938.666 7
  40982443.289           2.310          43.800


 207963639.453 6                  39574168.859
        -3.414                          40.700                   155297458.461 6
  39574162.105          -1.074          38.800


 131962659.803 6                  25111641.617
     -2750.379                          40.700                    98543495.713 5
  25111644.395       -2053.598          32.800


 121496779.910 7                  23120026.148    94672665.34945  23120028.590
     -3171.043       -2470.701          46.300          33.500



 133903945.925 6                  25481096.227   104340855.65842  25481102.723
      2325.793        1812.590          36.900          17.400    99993329.109 6
  25481104.375        1737.045          40.900


 209587375.551 5                  39883151.875
         3.426                          35.100                   156510046.034 6
  39883147.559           2.621          39.700


 212136308.872 5                  40329500.219
         3.172                          35.000



 211626364.945 5                  40271147.656
        35.805                          34.700



 16  1  1 21  3 30.0000000  0 22G25G24G17G02G15G28G12G06G22G14E14E22
                                E30E19S28S36G01G19G03S27S25S20
 124078046.475 7                  23611243.063    96684128.90344  23611249.309
      3511.098        2736.011          42.800          26.100    92655624.378 7
  23611250.664        2622.006          46.300


 107959216.194 9                  20543958.266    84124124.79947  20543965.078
      -959.172        -747.176          54.600          47.000    80618956.961 9
  20543966.762        -716.037          57.500


 118245042.557 8                  22501304.938    92139111.82646  22501308.711
     -2229.980       -1737.481          48.200          38.500



 133082981.556 6                  25324858.734   103701064.29343  25324860.422
      3311.090        2580.079          37.900          21.100



 132184611.046 6                  25153897.602   103001023.78443  25153902.414
     -3722.051       -2900.225          38.600          19.300



 134046363.613 6                  25508194.820   104451806.79542  25508198.152
     -3228.742       -2515.764          37.700          14.800



 108312139.521 8                  20611090.625    84398995.29347  20611094.574
      1807.527        1408.687          53.200          44.600



 123966407.479 6                  23590039.547    96597298.38044  23590046.605
      2891.727        2253.437          41.200          28.400    92572394.451 8
  23590048.746        2159.537          48.400


 132427850.528 5                  25200163.180   103190459.34242  25200163.652
     -2120.625       -1652.225          32.600          14.800



 120939017.534 7                  23013918.898    94238172.93244  23013922.609
      1744.238        1359.337          45.000          29.800



  96107272.628 8                  18288603.617
     -3456.891                          51.300                    71768473.557 8
  18288617.051       -2580.940          53.900    73640626.874 8  18288614.660
     -2648.271          53.500    72704508.323 9  18288615.879       -2614.604
        58.200
 131272758.237 8                  24980377.781
      -882.930                          50.300                    98028391.852 8
  24980381.578        -659.171          50.100   100585643.609 8  24980379.094
      -676.366          50.900    99307021.335 9  24980380.578        -667.766
        55.300
 138957010.346 7                  26442649.313
     -2830.023                          44.200                   103766701.237 7
  26442653.988       -2113.259          44.700   106473645.031 7  26442651.832
     -2168.383          44.100   105120161.738 8  26442653.184       -2140.813
        48.800
 141635136.299 6                  26952269.836
     -2242.582                          41.700                   105766502.080 6
  26952273.004       -1674.466          40.900   108525620.953 6  26952270.473
     -1718.145          40.200   107146068.622 7  26952271.703       -1696.304
        44.900
 215364209.701 6                  40982446.297
         2.828                          36.800                   160823872.462 7
  40982427.070           2.042          43.300


 207963735.873 6                  39574189.000
        -3.402                          40.000                   155297473.765 6
  39574182.410          -1.089          37.600


 132045360.009 6                  25127377.797
     -2763.109                          39.800                    98605252.295 6
  25127387.668       -2063.194          39.800


 121592088.475 7                  23138163.047    94746931.76145  23138165.180
     -3182.949       -2480.098          46.400          33.400



 133834363.260 6                  25467854.984   104286635.51242  25467861.629
      2312.930        1802.377          36.800          16.900    99941368.158 6
  25467863.402        1727.279          41.700


 209587269.974 5                  39883132.250
         3.523                          34.300                   156509966.425 6
  39883128.215           2.752          40.400


 212136199.365 5                  40329084.094
         3.531                          35.000



 211625282.156 5                  40270944.891
        35.863                          35.400



 16  1  1 21  4  0.0000000  0 23G25G32G24G17G02G15G28G12G06G22G14E14
                                E22E30E19S28S36G01G19G03S27S25S20
 123972792.309 6                  23591213.492    96602112.68644  23591219.859
      3505.711        2731.863          41.700          25.900    92577025.500 7
  23591221.566        2618.031          46.500


 129232985.34015                  24592243.461
       742.461                          33.800



 107988260.147 8                  20549485.258    84146756.44747  20549491.840
      -977.211        -761.119          53.800          47.000    80640645.634 9
  20549493.465        -729.412          57.100


 118312146.339 8                  22514074.258    92191400.48746  22514077.875
     -2243.664       -1748.060          48.300          39.000



 132983646.778 5                  25305959.039   103623660.58743  25305956.922
      3310.988        2580.107          33.700          18.300



 132296277.665 6                  25175148.313   103088036.69243  25175152.059
     -3722.578       -2900.611          39.400          18.600



 134143228.171 6                  25526627.086   104527285.68142  25526631.227
     -3229.094       -2516.115          36.300          12.600



 108258131.240 8                  20600813.117    84356910.91747  20600816.938
      1792.809        1397.308          53.200          44.900



 123879824.018 6                  23573563.805    96529830.73644  23573570.637
      2880.340        2244.673          40.500          28.100    92507737.942 8
  23573572.723        2151.151          48.800


 132491639.365 5                  25212302.172   103240164.88942  25212303.023
     -2132.328       -1661.257          34.600          14.800



 120886948.396 7                  23004010.422    94197599.58845  23004014.609
      1726.945        1345.981          45.200          31.000



  96211559.751 8                  18308448.844
     -3495.715                          51.100                    71846350.308 8
  18308461.945       -2609.859          53.100    73720535.186 8  18308459.695
     -2677.936          53.300    72783400.856 9  18308460.910       -2643.901
        58.100
 131299458.624 8                  24985458.602
      -897.238                          50.200                    98048330.451 8
  24985462.285        -669.720          50.500   100606102.343 8  24985459.941
      -687.189          51.100    99327220.004 9  24985461.289        -678.454
        55.300
 139041963.779 7                  26458815.094
     -2833.652                          43.300                   103830140.489 7
  26458819.898       -2115.922          43.600   106538739.222 7  26458817.930
     -2171.120          44.700   105184428.463 8  26458819.121       -2143.521
        48.600
 141702556.719 6                  26965099.531
     -2252.262                          41.600                   105816848.499 6
  26965103.270       -1681.731          41.600   108577280.745 6  26965100.551
     -1725.597          39.900   107197071.731 7  26965101.434       -1703.667
        45.100
 215364120.716 6                  40982429.313
         2.633                          37.000                   160823805.383 7
  40982410.320           2.123          43.700


 207963834.334 6                  39574208.813
        -3.324                          39.900                   155297489.322 6
  39574201.309           -.416          37.500


 132128444.041 6                  25143189.219   102957189.48842  25143197.469
     -2775.941       -2162.793          40.900          17.800    98667295.528 6
  25143196.910       -2072.678          41.700


 121687758.711 7                  23156368.672    94821479.99745  23156370.727
     -3195.195       -2489.451          44.500          33.600



 133765174.465 6                  25454688.711   104232722.27742  25454695.211
      2299.430        1792.107          37.900          16.300    99889701.325 7
  25454697.512        1717.451          42.000


 209587163.366 5                  39883111.531
         3.297                          35.100                   156509887.398 6
  39883107.238           2.586          39.800


 212136093.341 5                  40328682.859
         3.395                          34.500



 211624195.306 5                  40270738.594
        36.289                          34.200



 16  1  1 21  4 30.0000000  0 22G25G32G24G17G15G28G12G06G22G14E14E22
                                E30E19S28S36G01G19G03S27S25S20
 123867699.036 6                  23571214.086    96520221.81844  23571221.715
      3500.355        2727.660          40.600          25.600    92498546.730 7
  23571223.188        2614.001          46.700


 129211013.754 5                  24588063.688
       722.910                          33.700



 108017841.189 9                  20555114.391    84169806.61047  20555121.055
      -995.000        -775.068          55.100          47.200    80662735.372 9
  20555122.621        -742.776          57.100


 118379656.485 8                  22526921.133    92244005.79846  22526924.766
     -2257.082       -1758.589          48.700          38.300



 132407957.645 6                  25196400.125   103175059.93042  25196404.547
     -3722.793       -2900.876          37.600          15.600



 134240108.631 5                  25545063.039
     -3229.539                          31.800



 108204562.676 8                  20590619.148    84315169.17947  20590623.070
      1778.223        1385.869          51.800          44.900



 123793579.595 6                  23557151.180    96462627.28844  23557158.691
      2869.121        2235.850          40.200          27.200    92443334.634 8
  23557160.891        2142.686          48.100


 132555772.992 5                  25224506.695   103290139.13652  25224506.984
     -2143.477       -1670.037          33.100          14.800



 120835394.052 7                  22994200.094    94157427.36845  22994204.637
      1709.922        1332.601          43.200          30.900



  96317004.808 8                  18328514.117
     -3534.074                          51.300                    71925091.745 8
  18328527.613       -2638.580          53.200    73801330.753 8  18328525.316
     -2707.414          53.400    72863169.355 9  18328526.465       -2672.994
        58.400
 131326582.109 8                  24990619.984
      -911.223                          50.700                    98068585.002 8
  24990623.816        -680.241          50.600   100626885.277 8  24990621.566
      -697.987          50.900    99347738.746 9  24990622.793        -689.111
        55.200
 139127025.237 7                  26475001.391
     -2837.141                          42.700                   103893660.409 7
  26475006.938       -2118.615          43.500   106603916.185 7  26475004.496
     -2173.887          43.900   105248776.902 8  26475005.879       -2146.250
        48.600
 141770269.831 7                  26977984.758
     -2261.879                          42.300                   105867413.480 6
  26977988.520       -1689.006          41.600   108629164.831 6  26977986.172
     -1733.072          40.700   107248296.265 7  26977986.730       -1711.039
        45.200
 215364031.471 6                  40982410.875
         2.988                          37.400                   160823738.959 7
  40982392.188           2.230          43.600


 207963937.245 6                  39574227.438
        -3.875                          41.000                   155297704.698 6
  39574221.879           -.900          38.000


 132211908.736 6                  25159072.266   103022226.79042  25159080.453
     -2788.461       -2172.699          39.000          15.600    98729623.030 7
  25159079.773       -2082.152          43.200


 121783787.001 7                  23174642.289    94896307.22945  23174644.309
     -3206.773       -2498.702          45.600          33.500



 133696381.549 5                  25441596.742   104179117.35242  25441604.742
      2286.301        1781.826          34.300          15.600    99838329.954 6
  25441607.102        1707.576          40.600


 209587056.902 6                  39883089.281
         3.570                          36.100                   156509807.747 6
  39883087.664           2.763          40.300


 212135986.549 5                  40328272.750
         3.414                          34.600



 211623109.167 5                  40270514.141
        36.172                          34.600



 16  1  1 21  5  0.0000000  0 22G25G32G24G17G02G15G28G12G06G22G14E14
                                E22E30E19S28S36G01G19G03S27S20
 123762768.306 6                  23551246.977    96438457.60844  23551254.719
      3494.984        2723.444          41.700          25.900    92420189.388 7
  23551255.371        2609.963          46.100


 129189616.380 5                  24583990.094
       703.563                          35.300



 108047959.470 8                  20560845.438    84193275.40047  20560852.270
     -1012.863        -789.007          53.900          46.700    80685226.295 9
  20560853.836        -756.131          57.000


 118447570.812 7                  22539844.898    92296926.04946  22539848.191
     -2270.496       -1769.054          47.900          38.600



 132784973.005 5                  25268149.672   103468855.50243  25268151.906
      3311.219        2580.055          34.900          19.900



 132519648.745 6                  25217653.813   103262091.93542  25217658.945
     -3723.062       -2901.117          38.600          14.800



 134337004.508 5                  25563501.781
     -3229.906                          35.100



 108151434.563 8                  20580509.281    84273770.64747  20580513.176
      1763.590        1374.427          52.500          45.200



 123707677.375 6                  23540804.742    96395690.49844  23540811.895
      2857.750        2226.922          39.900          27.100    92379186.876 8
  23540814.215        2134.128          48.800


 132620249.59914                  25236776.461
     -2154.734                          29.100



 120784356.414 7                  22984487.656    94117657.79244  22984491.516
      1692.668        1319.154          42.300          29.800



  96423600.636 8                  18348798.719
     -3572.250                          51.200                    72004692.530 8
  18348812.105       -2667.125          53.700    73883008.076 8  18348809.809
     -2736.704          53.400    72943808.411 9  18348811.125       -2701.915
        58.300
 131354128.109 8                  24995861.883
      -925.266                          50.900                    98089155.069 8
  24995865.652        -690.734          50.600   100647991.953 8  24995863.402
      -708.751          50.800    99368577.114 9  24995864.668        -699.743
        55.300
 139212194.346 7                  26491208.664
     -2840.789                          42.500                   103957260.701 7
  26491214.141       -2121.299          43.900   106669175.622 7  26491211.375
     -2176.637          44.000   105313206.769 8  26491213.031       -2148.966
        48.600
 141838274.039 6                  26990925.109
     -2271.711                          41.300                   105918195.873 6
  26990929.398       -1696.238          41.800   108681271.965 6  26990926.535
     -1740.483          40.300   107299741.021 7  26990927.492       -1718.354
        45.300
 215363941.424 6                  40982393.766
         2.824                          37.000                   160823671.712 7
  40982375.547           2.168          43.600


 207964048.700 6                  39574247.766
        -3.336                          39.900                   155297729.594 6
  39574241.574           -.568          38.600


 132295751.693 6                  25175027.695   103087558.88042  25175034.320
     -2801.086       -2182.447          38.600          16.300    98792232.916 6
  25175034.055       -2091.526          41.300


 121880170.876 7                  23192983.695    94971411.54445  23192985.742
     -3218.738       -2507.922          44.200          33.400



 133627987.122 5                  25428582.805   104125823.10242  25428588.938
      2273.188        1771.409          34.100          14.800    99787256.222 6
  25428591.004        1697.636          40.200


 209586948.509 5                  39883072.109
         3.840                          35.700                   156509726.986 6
  39883065.871           2.715          40.100


 211622019.226 5                  40270322.219
        36.027                          35.200



 16  1  1 21  5 30.0000000  0 22G25G32G24G17G02G15G28G12G06G14E14E22
                                E30E19S28S36G01G19G03S27S25S20
 123658001.821 7                  23531311.008    96356821.43544  23531318.781
      3489.559        2719.137          42.600          26.500    92341954.692 7
  23531320.254        2605.837          47.200


 129168793.984 5                  24580026.813   100651129.87042  24580032.598
       685.012         533.691          31.600          16.300



 108078614.495 9                  20566679.094    84217162.43247  20566686.074
     -1030.758        -802.969          54.400          47.000    80708118.039 9
  20566687.637        -769.511          57.100


 118515887.098 7                  22552844.875    92350159.51446  22552848.844
     -2283.918       -1779.464          47.100          38.100



 132685643.736 6                  25249249.406   103391456.10343  25249250.465
      3310.730        2579.922          41.300          22.000



 132631348.432 6                  25238910.875   103349130.80643  25238914.820
     -3723.430       -2901.395          41.800          18.300



 134433915.55315                  25581945.672
     -3230.441                          31.800



 108098748.332 8                  20570483.586    84232716.44247  20570487.406
      1748.844        1362.916          53.400          45.000



 123622120.523 6                  23524524.242    96329022.81844  23524531.012
      2846.098        2217.896          40.200          26.300    92315297.019 8
  23524533.215        2125.483          48.200


 120733837.549 7                  22974874.305    94078292.43744  22974878.121
      1675.285        1305.663          42.200          29.600



  96531339.984 8                  18369300.867
     -3610.230                          51.000                    72085147.239 8
  18369314.207       -2695.521          53.400    73965561.600 8  18369312.004
     -2765.833          53.200    73025312.526 9  18369313.195       -2730.677
        57.900
 131382095.903 8                  25001184.000
      -939.215                          50.400                    98110040.111 8
  25001187.789        -701.233          50.100   100669421.823 8  25001185.352
      -719.526          51.100    99389734.574 9  25001186.754        -710.379
        55.300
 139297470.535 7                  26507436.250
     -2844.293                          42.400                   104020940.962 7
  26507441.391       -2123.945          43.800   106734517.106 7  26507438.813
     -2179.350          44.600   105377717.639 8  26507440.551       -2151.645
        48.600
 141906567.780 6                  27003920.930
     -2281.414                          40.500                   105969194.431 6
  27003924.656       -1703.413          40.200   108733600.919 6  27003922.031
     -1747.858          39.700   107351404.776 7  27003923.297       -1725.635
        44.700
 215363852.078 6                  40982377.281
         2.863                          36.900                   160823605.341 7
  40982357.938           2.069          43.300


 207964150.334 6                  39574266.656
        -3.367                          40.800                   155297746.204 6
  39574260.582           -.528          37.800


 132379970.360 5                  25191053.547   103153183.79342  25191061.176
     -2813.375       -2192.157          35.500          15.600    98855123.467 7
  25191062.199       -2100.826          42.600


 121976907.946 7                  23211391.398    95046791.08545  23211393.688
     -3230.395       -2517.070          44.200          33.400



 133559994.540 6                  25415645.094   104072841.88642  25415650.727
      2259.660        1760.979          37.600          16.300    99736482.670 6
  25415652.559        1687.587          40.600


 209586839.861 5                  39883050.984
         3.742                          34.500                   156509646.241 6
  39883046.598           2.598          40.300


 211924379.298 5                  40327445.656
         3.250                          34.600



 211620927.243 5                  40270109.797
        36.461                          35.000



 16  1  1 21  6  0.0000000  0 23G25G32G24G17G02G15G28G12G06G14E14E22
                                E30E19S28S36G01R13G19G03S27S25S20
 123553400.827 7                  23511406.250    96275314.15844  23511414.172
      3483.922        2714.824          42.800          28.500    92263843.552 7
  23511415.234        2601.700          47.300


 129148547.541 6                  24576174.398   100635353.32742  24576179.973
       665.277         518.667          36.200          17.800



 108109805.593 9                  20572614.406    84241467.18447  20572621.367
     -1048.449        -816.856          54.500          46.800    80731410.090 9
  20572622.871        -782.825          56.900


 118584603.578 8                  22565920.852    92403704.82746  22565925.078
     -2297.086       -1789.832          48.800          38.700



 132586320.717 7                  25230348.164   103314061.60343  25230349.039
      3310.863        2579.737          43.600          20.600



 132743054.240 7                  25260166.984   103436174.24844  25260172.078
     -3723.426       -2901.484          44.600          25.600



 134530839.48814                  25600386.758
     -3231.082                          28.600



 108046504.753 9                  20560541.992    84192007.16447  20560546.188
      1734.176        1351.434          54.500          45.400



 123536911.676 6                  23508309.531    96262626.30344  23508316.477
      2834.621        2208.848          40.100          27.700    92251667.025 7
  23508318.797        2116.809          47.700


 120683838.713 7                  22965360.250    94039332.30445  22965363.441
      1658.098        1292.143          45.100          30.100



  96640215.024 8                  18390019.141
     -3647.898                          52.000                    72166450.034 8
  18390032.500       -2723.685          53.500    74048985.330 8  18390030.063
     -2794.733          53.700    73107675.791 9  18390031.375       -2759.211
        58.100
 131410484.374 8                  25006586.164
      -953.102                          50.200                    98131239.292 8
  25006589.848        -711.684          50.500   100691174.023 8  25006587.641
      -730.244          51.000    99411210.262 9  25006588.914        -720.962
        55.200
 139382852.978 7                  26523684.227
     -2847.621                          43.200                   104084700.588 7
  26523689.195       -2126.552          44.000   106799940.025 7  26523686.664
     -2182.030          44.300   105442308.912 8  26523688.324       -2154.289
        48.600
 141975148.947 6                  27016971.461
     -2290.621                          39.800                   106020407.626 6
  27016974.512       -1710.526          40.400   108786150.112 6  27016973.105
     -1755.137          40.300   107403285.974 7  27016973.793       -1732.830
        44.500
 215363761.868 6                  40982359.125
         2.992                          37.100                   160823538.269 7
  40982342.078           2.138          43.400


 207964250.045 6                  39574286.578
        -3.215                          40.600                   155297961.179 6
  39574279.473           -.997          37.400


 132464562.000 6                  25207150.461   103219099.29742  25207158.527
     -2825.855       -2201.821          36.000          17.400    98918292.576 6
  25207156.035       -2110.107          39.800


 104307530.103 7  19533451.625    19533452.781    81128082.685 8  19533456.016
      1676.730        1304.122          47.000          50.000



 122073994.893 7                  23229866.555    95122443.24545  23229869.012
     -3241.937       -2526.094          43.700          32.300



 133492405.166 5                  25402781.727   104020174.80342  25402788.793
      2246.352        1750.561          33.800          14.800    99686010.052 6
  25402792.500        1677.597          40.500


 209586730.823 5                  39883028.625
         4.113                          34.700                   156509564.477 6
  39883024.777           2.905          40.200


 211924287.661 5                  40327033.125
         3.152                          33.900



 211619832.819 5                  40269906.906
        36.754                          35.400



 16  1  1 21  6 30.0000000  0 21G25G32G24G17G02G15G12G06G14E14E22E30
                                E19S28S36G01G19G03S27S25S20
 123448966.689 7                  23491532.273    96193936.90644  23491539.734
      3478.262        2710.442          43.900          28.300    92185857.053 7
  23491540.621        2597.509          46.200


 129128877.417 6                  24572431.227   100620026.02542  24572436.605
       646.164         503.674          36.200          16.300



 108141531.912 8                  20578652.109    84266188.98647  20578659.059
     -1066.480        -830.787          53.900          46.700    80755101.818 9
  20578660.566        -796.175          57.300


 118653718.300 8                  22579073.586    92457560.45146  22579077.297
     -2310.422       -1800.162          48.300          39.000



 132487006.945 7                  25211449.625   103236674.22642  25211448.840
      3310.258        2579.449          44.300          14.800



 132854763.227 7                  25281425.313   103523220.14545  25281429.656
     -3723.625       -2901.549          45.300          30.000



 107994704.732 8                  20550684.641    84151643.50847  20550688.664
      1719.289        1339.880          51.400          45.200



 123452053.773 6                  23492161.211    96196503.23744  23492168.434
      2822.719        2199.668          40.200          27.200    92188299.095 8
  23492170.457        2108.013          48.800


 120634361.769 7                  22955944.492    94000778.84144  22955948.625
      1640.477        1278.543          42.900          29.900



  96750218.210 8                  18410951.984
     -3685.469                          51.700                    72248595.268 8
  18410965.551       -2751.692          53.100    74133273.493 8  18410963.066
     -2823.478          53.100    73190892.492 9  18410964.176       -2787.587
        58.100
 131439292.577 8                  25012068.094
      -967.234                          51.000                    98152751.912 8
  25012071.902        -722.139          50.500   100713247.842 8  25012069.559
      -740.975          51.000    99433003.481 9  25012070.910        -731.551
        55.300
 139468340.924 7                  26539952.063
     -2851.398                          43.900                   104148538.990 7
  26539957.191       -2129.232          44.100   106865443.782 7  26539954.426
